01/28,18:34:54,6.00,0.00,0.07,42.77,31.00,22.00,202016/4/28,18:34:56,6.00,0.00,0.07,-100.00,31.00,22.00,19

2016/4/28,18:35:2,6.00,0.00,0.06,19.53,31.00,22.00,24

2036/8/20,7:45:0,6.00,0.00,0.06,10.40,31.00,22.00,26

2016/4/28,18:35:14,6.00,0.00,0.06,18.70,31.00,22.00,16

016/4/28,18:49:53,7.00,0.00,0.08,-98.34,31.00,22.00,39

2016/4/28,18:49:59,7.00,0.00,0.08,14.55,37.00,21.00,20

2016/4/28,18:50:6,7.00,0.00,0.07,25.34,37.00,21.00,45

2016/4/28,18:50:12,7.00,0.00,0.08,17.04,37.00,21.00,33

2036/2/17,5:22:2,7.00,0.00,0.07,26.17,38.00,21.00,25

2016/4/28,18:50:24,7.00,0.00,0.08,17.87,38.00,21.00,35

2016/4/28,18:50:30,7.00,0.00,0.07,18.70,38.00,21.00,31

2016/4/28,18:50:36,7.00,0.00,0.07,25.34,38.00,21.00,22

2036/2/17,5:22:26,7.00,0.00,0.07,15.38,38.00,21.00,36

2016/4/28,18:50:48,7.00,0.00,0.08,25.34,38.00,21.00,26

2016/4/28,18:50:54,7.00,0.00,0.08,27.83,38.00,21.00,38

2016/4/28,18:51:0,7.00,0.00,0.07,17.04,38.00,21.00,21

2016/4/28,18:51:6,7.00,0.00,0.08,13.72,38.00,21.00,32

2016/4/28,18:51:12,7.00,0.00,0.08,27.83,39.00,21.00,33

2016/4/28,18:51:18,7.00,0.00,0.07,7.91,39.00,21.00,37

2016/4/28,18:51:24,7.00,0.00,0.07,17.04,39.00,21.00,42

2036/2/23,15:15:14,7.00,0.00,0.07,27.00,39.00,21.00,36

2016/4/28,18:51:36,7.00,0.00,0.07,17.87,39.00,21.00,38

2016/4/28,18:51:43,7.00,0.00,0.08,12.89,38.00,21.00,24

2016/4/28,18:51:49,7.00,0.00,0.07,18.70,39.00,21.00,33

2036/2/23,17:18:9,7.00,0.00,0.07,18.70,38.00,21.00,33

2016/4/28,18:52:1,7.00,0.00,0.07,6.25,38.00,21.00,42

2016/4/28,18:52:7,7.00,0.00,0.08,14.55,39.00,21.00,26

2029/3/23,12:23:57,7.00,0.00,0.08,24.51,39.00,21.00,26

2016/4/28,18:52:19,7.00,0.00,0.08,7.91,39.00,21.00,38

2016/4/28,18:52:25,7.00,0.00,0.07,38.62,39.00,21.00,30

2016/4/28,18:52:31,7.00,0.00,0.08,14.55,39.00,21.00,40

2016/4/28,18:52:37,7.00,0.00,0.07,16.21,39.00,21.00,38

2016/4/28,18:52:43,7.00,0.00,0.08,12.89,39.00,21.00,24

2016/4/28,18:52:49,7.00,0.00,0.07,18.70,39.00,21.00,24

2036/2/23,17:17:15,7.00,0.00,0.08,20.36,39.00,21.00,35

2016/4/28,18:53:1,7.00,0.00,0.08,14.55,39.00,21.00,34

2036/2/17,12:24:51,7.00,0.00,0.08,21.19,39.00,21.00,42

2016/4/28,18:53:13,7.00,0.00,0.07,20.36,39.00,21.00,29

2016/4/28,18:53:19,7.00,0.00,0.07,16.21,39.00,21.00,24

2016/4/28,18:53:26,7.00,0.00,0.08,8.74,39.00,21.00,29

2036/2/23,16:19:16,7.00,0.00,0.08,11.23,39.00,21.00,34

2016/4/28,18:53:38,7.00,0.00,0.08,35.30,39.00,21.00,35

2036/2/17,12:25:28,7.00,0.00,0.08,23.68,39.00,21.00,36

2016/4/28,18:53:50,7.00,0.00,0.08,18.70,39.00,21.00,30

2016/4/28,18:53:56,7.00,0.00,0.08,15.38,39.00,21.00,23

2036/8/20,7:45:0,7.00,0.00,0.08,-0.39,40.00,21.00,22

2016/4/28,18:54:8,7.00,0.00,0.07,19.53,40.00,21.00,37

2016/4/28,18:54:14,7.00,0.00,0.07,17.87,40.00,21.00,35

2016/4/28,18:54:20,7.00,0.00,0.08,23.68,40.00,21.00,30

2036/2/23,15:31:10,7.00,0.00,0.08,26.17,40.00,21.00,36

2016/4/28,18:54:32,7.00,0.00,0.08,29.49,40.00,21.00,18

2016/4/28,18:54:38,7.00,0.00,0.08,9.57,40.00,21.00,33

2012/5/25,15:38:9,7.00,0.00,0.07,22.02,40.00,21.00,37

2016/4/28,18:54:50,7.00,0.00,0.08,3.76,40.00,21.00,35

2029/8/23,12:26:40,7.00,0.00,0.07,7.91,40.00,21.00,25

2016/4/28,18:55:3,7.00,0.00,0.08,7.91,40.00,21.00,26

2016/4/28,18:55:9,7.00,0.00,0.08,13.72,40.00,21.00,35

2023/4/28,18:55:15,7.00,0.00,0.08,14.55,40.00,21.00,29

2016/4/28,18:55:21,7.00,0.00,0.07,17.87,40.00,21.00,38

2016/4/28,18:55:27,7.00,0.00,0.08,21.19,40.00,21.00,38

2016/4/28,18:55:33,7.00,0.00,0.07,46.09,40.00,21.00,17

2036/2/23,17:18:9,7.00,0.00,0.08,15.38,40.00,21.00,42

2016/4/28,18:55:45,7.00,0.00,0.08,31.98,40.00,21.00,31

2016/4/28,18:55:51,7.00,0.00,0.07,12.89,40.00,21.00,35

2036/2/17,12:27:41,7.00,0.00,0.07,16.21,40.00,21.00,32

2016/4/28,18:56:3,8.00,0.00,0.08,29.49,40.00,21.00,18

2016/4/28,18:56:9,7.00,0.00,0.08,10.40,40.00,21.00,27

2016/4/28,18:56:15,7.00,0.00,0.08,4.59,40.00,21.00,25

2016/4/28,18:56:21,7.00,0.00,0.08,11.23,40.00,21.00,42

2036/8/20,7:45:0,7.00,0.00,0.08,25.34,40.00,21.00,33

2016/4/28,18:56:33,7.00,0.00,0.07,15.38,40.00,21.00,34

2016/4/28,18:56:40,7.00,0.00,0.08,17.87,40.00,21.00,38

2036/8/20,7:45:0,7.00,0.00,0.07,19.53,40.00,21.00,19

2016/4/28,18:56:52,7.00,0.00,0.08,20.36,40.00,21.00,18

2036/2/17,12:28:42,7.00,0.00,0.08,11.23,40.00,21.00,24

2016/4/28,18:57:4,7.00,0.00,0.08,21.19,40.00,21.00,29

2016/4/28,18:57:10,7.00,0.00,0.08,8.74,40.00,21.00,22

2016/4/28,18:57:16,7.00,0.00,0.08,19.53,40.00,21.00,17

2016/4/28,18:57:22,7.00,0.00,0.07,17.87,40.00,21.00,26

2016/4/28,18:57:28,7.00,0.00,0.08,21.19,40.00,21.00,35

2016/4/28,18:57:34,7.00,0.00,0.08,1.27,40.00,21.00,31

2036/2/23,15:29:24,7.00,0.00,0.08,23.68,40.00,21.00,41

2016/4/28,18:57:46,7.00,0.00,0.08,21.19,40.00,21.00,19

2016/4/28,18:57:52,7.00,0.00,0.08,15.38,40.00,21.00,30

2016/4/28,18:57:58,7.00,0.00,0.08,17.04,40.00,21.00,22

2016/4/28,18:58:4,7.00,0.00,0.08,24.51,40.00,21.00,30

2016/4/28,18:58:10,7.00,0.00,0.08,15.38,40.00,21.00,17

2029/3/23,12:30:1,7.00,0.00,0.08,4.59,40.00,21.00,31

2036/2/23,17:18:9,7.00,0.00,0.08,22.85,40.00,21.00,27

2016/4/28,18:58:29,7.00,0.00,0.08,16.21,40.00,21.00,36

2016/4/28,18:58:35,7.00,0.00,0.08,12.06,40.00,21.00,36

2036/2/17,12:30:25,7.00,0.00,0.08,13.72,40.00,21.00,35

2016/4/28,18:58:47,7.00,0.00,0.08,18.70,40.00,21.00,27

2016/4/28,18:58:53,7.00,0.00,0.08,16.21,40.00,21.00,33

2016/4/28,18:58:59,7.00,0.00,0.08,20.36,40.00,21.00,33

2016/4/28,18:59:5,7.00,0.00,0.08,15.38,40.00,21.00,30

2016/4/28,18:59:11,7.00,0.00,0.08,7.91,40.00,21.00,19

2016/4/28,18:59:17,7.00,0.00,0.08,10.40,40.00,21.00,31

2036/2/23,15:25:7,7.00,0.00,0.08,18.70,40.00,21.00,19

2016/4/28,18:59:29,7.00,0.00,0.08,17.87,40.00,21.00,31

2016/4/28,18:59:35,7.00,0.00,0.08,11.23,40.00,21.00,25

2036/8/20,7:45:0,7.00,0.00,0.08,20.36,40.00,21.00,41

2016/4/28,18:59:47,7.00,0.00,0.08,16.21,40.00,21.00,31

2035/9/26,12:31:38,7.00,0.00,0.08,20.36,40.00,21.00,18

2016/4/28,19:0:0,7.00,0.00,0.08,17.87,40.00,21.00,31

2036/2/23,17:18:9,7.00,0.00,0.08,17.87,40.00,21.00,31

2001/1/14,4:19:0,7.00,0.00,0.08,19.53,40.00,21.00,18

2016/4/28,19:0:18,7.00,0.00,0.08,15.38,41.00,21.00,43

2035/10/4,12:32:8,7.00,0.00,0.08,10.40,41.00,21.00,32

2016/4/28,19:0:30,7.00,0.00,0.08,17.87,41.00,21.00,18

2016/4/28,19:0:36,7.00,0.00,0.08,28.66,41.00,21.00,38

2016/4/28,19:0:42,7.00,0.00,0.08,26.17,41.00,21.00,31

2016/4/28,19:0:48,7.00,0.00,0.08,19.53,41.00,21.00,37

2016/4/28,19:0:54,7.00,0.00,0.08,12.06,41.00,21.00,18

2016/4/28,19:1:0,7.00,0.00,0.08,12.89,41.00,21.00,22

2016/4/28,19:1:6,7.00,0.00,0.08,14.55,41.00,21.00,43

2036/8/20,7:45:0,7.00,0.00,0.08,12.89,41.00,21.00,31

2016/4/28,19:1:18,7.00,0.00,0.08,10.40,41.00,21.00,31

2029/8/23,12:33:8,7.00,0.00,0.08,6.25,41.00,21.00,37

2083/11/11,21:0:0,7.00,0.00,0.08,13.72,41.00,21.00,27

2016/4/28,19:1:37,7.00,0.00,0.08,26.17,41.00,21.00,20

2016/4/28,19:1:43,7.00,0.00,0.08,11.23,41.00,21.00,38

2016/4/28,19:1:49,7.00,0.00,0.08,10.40,41.00,21.00,34

2016/4/28,19:1:55,7.00,0.00,0.08,23.68,41.00,21.00,38

2016/4/28,19:2:1,7.00,0.00,0.08,9.57,41.00,21.00,31

2029/8/23,12:33:51,7.00,0.00,0.08,27.00,41.00,21.00,31

2016/4/28,19:2:13,7.00,0.00,0.08,13.72,41.00,21.00,38

2016/4/28,19:2:19,7.00,0.00,0.08,17.87,41.00,21.00,22

2016/4/28,19:2:25,7.00,0.00,0.08,7.08,41.00,21.00,19

2016/4/28,19:2:31,7.00,0.00,0.08,23.68,41.00,21.00,41

2016/4/28,19:2:37,7.00,0.00,0.08,25.34,41.00,21.00,31

2016/4/28,19:2:43,7.00,0.00,0.08,15.38,41.00,21.00,37

2016/4/28,19:2:49,7.00,0.00,0.08,2.93,41.00,21.00,19

2016/4/28,19:2:55,7.00,0.00,0.08,26.17,41.00,21.00,30

2016/4/28,19:3:1,7.00,0.00,0.08,12.89,41.00,21.00,30

2029/3/23,12:34:51,7.00,0.00,0.08,15.38,41.00,21.00,36

2016/4/28,19:3:14,7.00,0.00,0.08,11.23,41.00,21.00,37

2016/4/28,19:3:20,7.00,0.00,0.08,15.38,41.00,21.00,33

2036/2/17,12:35:10,7.00,0.00,0.08,9.57,41.00,21.00,21

2016/4/28,19:3:32,7.00,0.00,0.08,27.00,41.00,21.00,35

2036/2/23,17:18:9,7.00,0.00,0.08,12.89,41.00,21.00,34

2001/1/14,4:19:3,7.00,0.00,0.08,17.04,41.00,21.00,32

2016/4/28,19:3:6,7.00,0.00,0.08,9.57,41.00,21.00,30

2016/4/28,19:3:12,7.00,0.00,0.08,22.85,41.00,21.00,31

2016/4/28,19:3:18,7.00,0.00,0.08,17.87,41.00,21.00,33

2036/2/17,12:35:8,8.00,0.00,0.08,14.55,41.00,21.00,26

2016/4/28,19:3:30,8.00,0.00,0.08,26.17,41.00,21.00,38

2016/4/28,19:3:36,8.00,0.00,0.08,22.02,41.00,21.00,42

2036/2/23,17:17:25,7.00,0.00,0.08,22.02,41.00,21.00,23

2016/4/28,19:3:48,7.00,0.00,0.08,14.55,41.00,21.00,33

2016/4/28,19:3:54,7.00,0.00,0.08,20.36,41.00,21.00,28

2036/8/20,7:45:0,8.00,0.00,0.08,22.85,41.00,21.00,35

2016/4/28,19:4:7,8.00,0.00,0.08,21.19,41.00,21.00,30

2036/8/20,7:45:0,7.00,0.00,0.08,20.36,41.00,21.00,30

2016/4/28,19:4:19,8.00,0.00,0.08,20.36,41.00,21.00,33

2016/4/28,19:4:25,7.00,0.00,0.08,21.19,41.00,21.00,40

2012/5/25,15:38:9,8.00,0.00,0.08,22.85,41.00,21.00,23

2016/4/28,19:4:37,8.00,0.00,0.08,20.36,41.00,21.00,21

2035/9/16,12:36:27,7.00,0.00,0.08,95.07,41.00,21.00,34

2016/4/28,19:4:49,8.00,0.00,0.08,15.38,41.00,21.00,36

2016/4/28,19:4:55,8.00,0.00,0.08,31.15,41.00,21.00,34

2016/4/28,19:5:1,8.00,0.00,0.08,16.21,41.00,21.00,30

2016/4/28,19:5:7,8.00,0.00,0.08,16.21,41.00,21.00,36

2016/4/28,19:5:13,8.00,0.00,0.08,25.34,41.00,21.00,40

2016/4/28,19:5:19,8.00,0.00,0.08,17.04,41.00,21.00,41

2016/4/28,19:5:25,8.00,0.00,0.08,19.53,41.00,21.00,43

2036/2/23,17:18:9,8.00,0.00,0.08,12.89,41.00,21.00,33

2016/4/28,19:5:37,8.00,0.00,0.08,2.10,41.00,21.00,36

2016/4/28,19:5:44,8.00,0.00,0.08,18.70,41.00,21.00,34

2016/4/28,19:5:50,8.00,0.00,0.08,21.19,41.00,21.00,35

2036/2/23,17:17:17,8.00,0.00,0.08,4.59,41.00,21.00,21

2016/4/28,19:6:2,8.00,0.00,0.08,13.72,41.00,21.00,20

2016/4/28,19:6:8,8.00,0.00,0.08,44.43,41.00,21.00,34

2016/4/28,19:6:14,8.00,0.00,0.08,13.72,41.00,21.00,35

2036/2/17,12:38:4,8.00,0.00,0.08,19.53,41.00,21.00,34

2016/4/28,19:6:26,8.00,0.00,0.08,0.44,41.00,21.00,19

2016/4/28,19:6:32,8.00,0.00,0.08,17.87,41.00,21.00,33

2016/4/28,19:6:38,8.00,0.00,0.08,17.87,41.00,21.00,34

2016/4/28,19:6:44,7.00,0.00,0.08,16.21,41.00,21.00,36

2016/4/28,19:6:50,8.00,0.00,0.08,13.72,41.00,21.00,22

2036/2/23,14:38:40,8.00,0.00,0.08,22.85,41.00,21.00,39

2016/4/28,19:7:2,7.00,0.00,0.08,22.02,41.00,21.00,33

2016/4/28,19:7:8,8.00,0.00,0.08,20.36,41.00,21.00,30

2016/4/28,19:7:14,8.00,0.00,0.08,17.87,41.00,21.00,26

2029/4/22,12:39:5,8.00,0.00,0.08,22.85,41.00,21.00,37

2036/8/20,7:45:0,8.00,0.00,0.08,16.21,41.00,21.00,36

2016/4/28,19:7:33,8.00,0.00,0.08,19.53,41.00,21.00,20

2016/4/28,19:7:39,8.00,0.00,0.08,10.40,41.00,21.00,40

2036/8/20,7:45:0,8.00,0.00,0.08,16.21,41.00,21.00,36

2016/4/28,19:7:51,8.00,0.00,0.08,13.72,41.00,21.00,25

2033/4/28,19:7:57,8.00,0.00,0.08,18.70,42.00,20.00,41

2016/4/28,19:8:3,8.00,0.00,0.08,14.55,41.00,21.00,39

2036/2/17,14:39:53,8.00,0.00,0.08,15.38,41.00,21.00,41

2016/4/28,19:8:15,8.00,0.00,0.08,31.15,41.00,21.00,38

2029/8/23,12:40:5,8.00,0.00,0.08,19.53,41.00,21.00,40

2083/11/11,21:0:0,7.00,0.00,0.08,-0.39,41.00,21.00,18

2016/4/28,19:8:33,8.00,0.00,0.08,14.55,41.00,21.00,37

2016/4/28,19:8:39,8.00,0.00,0.08,29.49,41.00,21.00,41

2036/8/20,7:45:0,7.00,0.00,0.08,18.70,41.00,21.00,16

2016/4/28,19:8:51,7.00,0.00,0.08,23.68,41.00,21.00,29

2016/4/28,19:8:58,7.00,0.00,0.08,8.74,41.00,21.00,30

2016/4/28,19:9:4,7.00,0.00,0.08,21.19,41.00,21.00,33

2016/4/28,19:9:10,8.00,0.00,0.08,14.55,41.00,21.00,37

2036/8/20,7:45:0,8.00,0.00,0.08,23.68,41.00,21.00,19

2016/4/28,19:9:22,7.00,0.00,0.08,12.89,41.00,21.00,33

2016/4/28,19:9:28,7.00,0.00,0.08,30.32,41.00,21.00,22

2016/4/28,19:9:34,8.00,0.00,0.08,32.81,41.00,21.00,33

2016/4/28,19:9:40,8.00,0.00,0.08,20.36,41.00,21.00,17

2016/4/28,19:9:46,8.00,0.00,0.08,12.06,41.00,21.00,40

2016/4/28,19:9:52,8.00,0.00,0.08,2.10,41.00,21.00,33

2036/2/23,17:17:42,8.00,0.00,0.08,14.55,41.00,21.00,17

2016/4/28,19:10:4,8.00,0.00,0.08,12.06,41.00,21.00,42

2036/2/17,12:41:54,7.00,0.00,0.08,25.34,41.00,21.00,37

2016/4/28,19:10:16,8.00,0.00,0.08,3.76,41.00,21.00,16

2016/4/28,19:10:22,7.00,0.00,0.08,23.68,41.00,21.00,45

2036/8/20,7:45:0,7.00,0.00,0.08,15.38,41.00,21.00,34

2016/4/28,19:10:35,7.00,0.00,0.08,15.38,41.00,21.00,16

2035/10/6,12:42:25,8.00,0.00,0.08,16.21,41.00,21.00,44

2016/4/28,19:10:47,8.00,0.00,0.08,16.21,41.00,21.00,25

2016/4/28,19:10:53,8.00,0.00,0.08,14.55,41.00,21.00,38

2016/4/28,19:10:59,8.00,0.00,0.08,12.89,41.00,21.00,34

2016/4/28,19:11:5,8.00,0.00,0.08,16.21,41.00,21.00,30

2016/4/28,19:11:11,8.00,0.00,0.08,24.51,41.00,21.00,36

2016/4/28,19:11:17,8.00,0.00,0.08,26.17,41.00,21.00,25

2016/4/28,19:11:23,8.00,0.00,0.08,12.89,41.00,21.00,25

2016/4/28,19:11:29,8.00,0.00,0.08,20.36,41.00,21.00,37

2016/4/28,19:11:35,8.00,0.00,0.08,17.04,41.00,21.00,35

2016/4/28,19:11:41,8.00,0.00,0.08,19.53,41.00,21.00,39

2012/5/25,15:38:9,8.00,0.00,0.08,31.15,41.00,21.00,23

2016/4/28,19:11:53,8.00,0.00,0.09,12.06,41.00,21.00,27

2016/4/28,19:11:59,8.00,0.00,0.08,19.53,41.00,21.00,40

2016/4/28,19:12:5,8.00,0.00,0.08,9.57,41.00,21.00,30

2016/4/28,19:12:12,8.00,0.00,0.08,38.62,41.00,21.00,43

2016/4/28,19:12:18,8.00,0.00,0.08,8.74,41.00,21.00,24

2036/2/17,12:44:8,8.00,0.00,0.08,23.68,41.00,21.00,16

2016/4/28,19:12:30,8.00,0.00,0.08,9.57,41.00,21.00,21

2016/4/28,19:12:36,8.00,0.00,0.08,21.19,41.00,21.00,33

2036/2/23,17:16:49,8.00,0.00,0.08,26.17,42.00,21.00,30

2016/4/28,19:12:48,7.00,0.00,0.08,13.72,42.00,21.00,43

2016/4/28,19:12:54,8.00,0.00,0.08,41.94,42.00,21.00,47

2016/4/28,19:13:0,8.00,0.00,0.08,23.68,42.00,21.00,31

2016/4/28,19:13:6,8.00,0.00,0.08,39.45,41.00,21.00,27

2016/4/28,19:13:12,8.00,0.00,0.08,11.23,42.00,21.00,27

2036/8/20,7:45:0,8.00,0.00,0.08,17.87,42.00,21.00,33

2016/4/28,19:13:24,8.00,0.00,0.08,12.06,42.00,21.00,36

2016/4/28,19:13:30,8.00,0.00,0.08,27.00,42.00,21.00,37

2016/4/28,19:13:36,8.00,0.00,0.08,14.55,42.00,21.00,27

2036/8/20,7:45:0,8.00,0.00,0.08,4.59,42.00,21.00,28

2016/4/28,19:13:49,8.00,0.00,0.08,26.17,42.00,21.00,36

2016/4/28,19:13:55,8.00,0.00,0.08,20.36,42.00,21.00,26

2016/4/28,19:14:1,8.00,0.00,0.08,24.51,42.00,21.00,42

2016/4/28,19:14:7,8.00,0.00,0.08,11.23,42.00,21.00,39

GPGGA,092804.000,2332.9439,N,08717.5720,E,1,10,0.85,104.9,M,-52.8,M,,*47

$GPGSA,A,3,07,11,08,01,28,30,09,23,13,17,,,1.47,0.85,1.20*05

$GPRMC,092804.000,A,2332.9439,N,08717.5720,E,0.16,29.13,290416,,,A*51

$GPZDA,092804.000,29,04,2016,,*5B

$GPGGA,092805.000,2332.9440,N,08717.5720,E,1,10,0.84,104.9,M,-52.8,M,,*49

$GPGSA,A,3,07,11,08,01,28,30,09,23,13,17,,,1.13,0.84,0.77*06

$GPRMC,092805.000,A,2332.9440,N,08717.5720,E,0.22,44.80,290416,,,A*58

$GPZDA,092805.000,29,04,2016,,*5A

$GPGGA,092806.000,2332.9440,N,08717.5721,E,1,10,0.84,104.9,M,-52.8,M,,*4B

$GPGSA,A,3,07,11,08,01,28,30,09,23,13,17,,,1.13,0.84,0.77*06

$GPGSV,4,1,13,07,76,068,17,41,62,190,,30,60,340,28,11,53,080,23*7E

$GPGSV,4,2,13,01,42,110,17,17,37,230,22,28,36,310,26,09,27,191,22*73

$GPGSV,4,3,13,08,22,038,26,193,11,117,16,13,09,318,20,19,07,223,16*48

$GPGSV,4,4,13,23,06,168,18*4A

$GPRMC,092806.000,A,2332.9440,N,08717.5721,E,0.23,17.01,290416,,,A*54

$GPZDA,092806.000,29,04,2016,,*59

$GPGGA,092807.000,2332.9441,N,08717.5721,E,1,10,0.84,104.8,M,-52.8,M,,*4A

$GPGSA,A,3,07,11,08,01,28,30,09,23,13,17,,,1.13,0.84,0.77*06

$GPRMC,092807.000,A,2332.9441,N,08717.5721,E,0.18,33.45,290416,,,A*5A

$GPZDA,092807.000,29,04,2016,,*58

$GPGGA,092808.000,2332.9441,N,08717.5721,E,1,10,0.84,104.8,M,-52.8,M,,*45

$GPGSA,A,3,07,11,08,01,28,30,09,23,13,17,,,1.13,0.84,0.77*06

$GPRMC,092808.000,A,2332.9441,N,08717.5721,E,0.19,32.10,290416,,,A*55

$GPZDA,092808.000,29,04,2016,,*57

$GPGGA,092809.000,2332.9441,N,08717.5722,E,1,10,0.84,104.8,M,-52.8,M,,*47

$GPGSA,A,3,07,11,08,01,28,30,09,23,13,17,,,1.13,0.84,0.77*06

$GPRMC,092809.000,A,2332.9441,N,08717.5722,E,0.28,37.73,290416,,,A*55

$GPZDA,092809.000,29,04,2016,,*56

$GPGGA,092810.000,2332.9442,N,08717.5722,E,1,10,0.84,104.8,M,-52.8,M,,*4C

$GPGSA,A,3,07,11,08,01,28,30,09,23,13,17,,,1.13,0.84,0.77*06

$GPRMC,092810.000,A,2332.9442,N,08717.5722,E,0.32,30.50,290416,,,A*53

$GPZDA,092810.000,29,04,2016,,*5E

$GPGGA,092811.000,2332.9443,N,08717.5723,E,1,10,0.84,104.8,M,-52.8,M,,*4D

$GPGSA,A,3,07,11,08,01,28,30,09,23,13,17,,,1.13,0.84,0.77*06

$GPGSV,4,1,13,07,76,068,20,30,60,340,29,11,53,080,24,44,53,225,*76

$GPGSV,4,2,13,01,42,110,13,17,37,230,24,28,36,310,24,09,27,191,24*75

$GPGSV,4,3,13,08,22,038,28,193,11,117,18,13,09,318,21,19,07,223,16*49

$GPGSV,4,4,13,23,06,168,19*4B

$GPRMC,092811.000,A,2332.9443,N,08717.5723,E,0.21,39.34,290416,,,A*5B

$GPZDA,092811.000,29,04,2016,,*5F

$GPGGA,092812.000,2332.9443,N,08717.5723,E,1,10,0.84,104.8,M,-52.8,M,,*4E

$GPGSA,A,3,07,11,08,01,28,30,09,23,13,17,,,1.14,0.84,0.77*01

$GPRMC,092812.000,A,2332.9443,N,08717.5723,E,0.10,352.63,290416,,,A*66

$GPZDA,092812.000,29,04,2016,,*5C

$GPGGA,092813.000,2332.9443,N,08717.5723,E,1,10,0.85,104.8,M,-52.8,M,,*4E

$GPGSA,A,3,07,11,08,01,28,30,09,23,13,17,,,1.47,0.85,1.20*05

$GPRMC,092813.000,A,2332.9443,N,08717.5723,E,0.04,238.99,290416,,,A*6A

$GPZDA,092813.000,29,04,2016,,*5D

$GPGGA,092814.000,2332.9443,N,08717.5723,E,1,10,0.84,104.8,M,-52.8,M,,*48

$GPGSA,A,3,07,11,08,01,28,30,09,23,13,17,,,1.13,0.84,0.77*06

$GPRMC,092814.000,A,2332.9443,N,08717.5723,E,0.10,205.67,290416,,,A*67

$GPZDA,092814.000,29,04,2016,,*5A

$GPGGA,092815.000,2332.9443,N,08717.5723,E,1,10,0.84,104.8,M,-52.8,M,,*49

$GPGSA,A,3,07,11,08,01,28,30,09,23,13,17,,,1.13,0.84,0.77*06

$GPRMC,092815.000,A,2332.9443,N,08717.5723,E,0.09,174.14,290416,,,A*6F

$GPZDA,092815.000,29,04,2016,,*5B

$GPGGA,092816.000,2332.9443,N,08717.5723,E,1,10,0.84,104.8,M,-52.8,M,,*4A

$GPGSA,A,3,07,11,08,01,28,30,09,23,13,17,,,1.13,0.84,0.77*06

$GPGSV,4,1,13,07,76,069,24,30,60,340,29,11,53,080,20,44,53,225,*77

$GPGSV,4,2,13,01,42,110,18,17,37,230,22,28,36,310,22,09,26,191,20*7B

$GPGSV,4,3,13,08,22,038,26,193,11,117,19,13,09,318,19,19,07,223,12*49

$GPGSV,4,4,13,23,06,168,18*4A

$GPRMC,092816.000,A,2332.9443,N,08717.5723,E,0.12,161.19,290416,,,A*6F

$GPZDA,092816.000,29,04,2016,,*58

$GPGGA,092817.000,2332.9442,N,08717.5723,E,1,10,0.84,104.8,M,-52.8,M,,*4A

$GPGSA,A,3,07,11,08,01,28,30,09,23,13,17,,,1.13,0.84,0.77*06

$GPRMC,092817.000,A,2332.9442,N,08717.5723,E,0.12,122.93,290416,,,A*6A

$GPZDA,092817.000,29,04,2016,,*59

$GPGGA,092818.000,2332.9442,N,08717.5723,E,1,10,0.84,104.8,M,-52.8,M,,*45

$GPGSA,A,3,07,11,08,01,28,30,09,23,13,17,,,1.14,0.84,0.77*01

$GPRMC,092818.000,A,2332.9442,N,08717.5723,E,0.14,158.29,290416,,,A*6F

$GPZDA,092818.000,29,04,2016,,*56

$GPGGA,092819.000,2332.9442,N,08717.5724,E,1,10,0.84,104.8,M,-52.8,M,,*43

$GPGSA,A,3,07,11,08,01,28,30,09,23,13,17,,,1.14,0.84,0.77*01

$GPRMC,092819.000,A,2332.9442,N,08717.5724,E,0.14,162.70,290416,,,A*6C

$GPZDA,092819.000,29,04,2016,,*57

$GPGGA,092820.000,2332.9441,N,08717.5724,E,1,10,0.84,104.8,M,-52.8,M,,*4A

$GPGSA,A,3,07,11,08,01,28,30,09,23,13,17,,,1.13,0.84,0.77*06

$GPRMC,092820.000,A,2332.9441,N,08717.5724,E,0.11,165.39,290416,,,A*6A

$GPZDA,092820.000,29,04,2016,,*5D

$GPGGA,092821.000,2332.9441,N,08717.5724,E,1,10,0.84,104.8,M,-52.8,M,,*4B

$GPGSA,A,3,07,11,08,01,28,30,09,23,13,17,,,1.13,0.84,0.77*06

$GPGSV,4,1,13,07,76,069,22,30,60,340,26,11,53,079,20,40,44,237,*79

$GPGSV,4,2,13,01,42,110,18,17,37,230,20,28,36,310,25,09,26,191,17*7A

$GPGSV,4,3,13,08,22,038,26,193,11,117,19,13,09,318,18,19,07,223,12*48

$GPGSV,4,4,13,23,06,168,18*4A

$GPRMC,092821.000,A,2332.9441,N,08717.5724,E,0.12,159.72,290416,,,A*68

$GPZDA,092821.000,29,04,2016,,*5C

$GPGGA,092822.000,2332.9441,N,08717.5724,E,1,10,0.84,104.8,M,-52.8,M,,*48

$GPGSA,A,3,07,11,08,01,28,30,09,23,13,17,,,1.13,0.84,0.77*06

$GPRMC,092822.000,A,2332.9441,N,08717.5724,E,0.13,129.69,290416,,,A*67

$GPZDA,092822.000,29,04,2016,,*5F

$GPGGA,092823.000,2332.9441,N,08717.5724,E,1,10,0.84,104.8,M,-52.8,M,,*49

$GPGSA,A,3,07,11,08,01,28,30,09,23,13,17,,,1.13,0.84,0.77*06

$GPRMC,092823.000,A,2332.9441,N,08717.5724,E,0.04,193.65,290416,,,A*6D

$GPZDA,092823.000,29,04,2016,,*5E

$GPGGA,092824.000,2332.9440,N,08717.5724,E,1,10,0.84,104.8,M,-52.8,M,,*4F

$GPGSA,A,3,07,11,08,01,28,30,09,23,13,17,,,1.13,0.84,0.77*06

$GPRMC,092824.000,A,2332.9440,N,08717.5724,E,0.08,140.93,290416,,,A*60

$GPZDA,092824.000,29,04,2016,,*59

$GPGGA,092825.000,2332.9440,N,08717.5724,E,1,10,0.84,104.8,M,-52.8,M,,*4E

$GPGSA,A,3,07,11,08,01,28,30,09,23,13,17,,,1.13,0.84,0.77*06

$GPRMC,092825.000,A,2332.9440,N,08717.5724,E,0.15,83.31,290416,,,A*5B

$GPZDA,092825.000,29,04,2016,,*58

$GPGGA,092826.000,2332.9440,N,08717.5725,E,1,10,0.84,104.8,M,-52.8,M,,*4C

$GPGSA,A,3,07,11,08,01,28,30,09,23,13,17,,,1.13,0.84,0.77*06

$GPGSV,4,1,13,07,76,069,25,30,60,340,28,11,53,079,17,40,44,237,*74

$GPGSV,4,2,13,01,42,110,19,17,38,231,21,28,36,310,29,09,26,191,18*77

$GPGSV,4,3,13,08,22,038,27,193,11,117,20,13,09,318,14,19,08,223,13*41

$GPGSV,4,4,13,23,06,168,18*4A

$GPRMC,092826.000,A,2332.9440,N,08717.5725,E,0.17,64.06,290416,,,A*56

$GPZDA,092826.000,29,04,2016,,*5B

$GPGGA,092827.000,2332.9440,N,08717.5725,E,1,10,0.84,104.8,M,-52.8,M,,*4D

$GPGSA,A,3,07,11,08,01,28,30,09,23,13,17,,,1.13,0.84,0.77*06

$GPRMC,092827.000,A,2332.9440,N,08717.5725,E,0.16,86.21,290416,,,A*5F

$GPZDA,092827.000,29,04,2016,,*5A

$GPGGA,092828.000,2332.9440,N,08717.5726,E,1,10,0.84,104.8,M,-52.8,M,,*41

$GPGSA,A,3,07,11,08,01,28,30,09,23,13,17,,,1.13,0.84,0.77*06

$GPRMC,092828.000,A,2332.9440,N,08717.5726,E,0.20,84.21,290416,,,A*54

$GPZDA,092828.000,29,04,2016,,*55

$GPGGA,092829.000,2332.9441,N,08717.5726,E,1,10,0.84,104.8,M,-52.8,M,,*41

$GPGSA,A,3,07,11,08,01,28,30,09,23,13,17,,,1.13,0.84,0.77*06

$GPRMC,092829.000,A,2332.9441,N,08717.5726,E,0.19,97.15,290416,,,A*5B

$GPZDA,092829.000,29,04,2016,,*54

$GPGGA,092830.000,2332.9440,N,08717.5727,E,1,10,0.84,104.8,M,-52.8,M,,*49

$GPGSA,A,3,07,11,08,01,28,30,09,23,13,17,,,1.13,0.84,0.77*06

$GPRMC,092830.000,A,2332.9440,N,08717.5727,E,0.19,76.65,290416,,,A*5B

$GPZDA,092830.000,29,04,2016,,*5C

$GPGGA,092831.000,2332.9441,N,08717.5727,E,1,10,0.84,104.8,M,-52.8,M,,*49

$GPGSA,A,3,07,11,08,01,28,30,09,23,13,17,,,1.13,0.84,0.77*06

$GPGSV,4,1,13,07,76,069,22,30,60,340,27,11,53,079,23,01,42,110,18*77

$GPGSV,4,2,13,17,38,231,22,28,36,310,29,09,26,191,19,42,25,106,*7C

$GPGSV,4,3,13,08,22,038,27,193,11,117,20,13,09,318,14,19,08,223,14*46

$GPGSV,4,4,13,23,05,168,18*49

$GPRMC,092831.000,A,2332.9441,N,08717.5727,E,0.11,72.53,290416,,,A*52

$GPZDA,092831.000,29,04,2016,,*5D

$GPGGA,092832.000,2332.9441,N,08717.5728,E,1,10,0.84,104.8,M,-52.8,M,,*45

$GPGSA,A,3,07,11,08,01,28,30,09,23,13,17,,,1.13,0.84,0.77*06

$GPRMC,092832.000,A,2332.9441,N,08717.5728,E,0.10,330.55,290416,,,A*6C

$GPZDA,092832.000,29,04,2016,,*5E

$GPGGA,092833.000,2332.9441,N,08717.5727,E,1,10,0.84,104.8,M,-52.8,M,,*4B

$GPGSA,A,3,07,11,08,01,28,30,09,23,13,17,,,1.13,0.84,0.77*06

$GPRMC,092833.000,A,2332.9441,N,08717.5727,E,0.11,319.20,290416,,,A*6A

$GPZDA,092833.000,29,04,2016,,*5F

$GPGGA,092834.000,2332.9441,N,08717.5727,E,1,10,0.84,104.8,M,-52.8,M,,*4C

$GPGSA,A,3,07,11,08,01,28,30,09,23,13,17,,,1.13,0.84,0.77*06

$GPRMC,092834.000,A,2332.9441,N,08717.5727,E,0.15,290.13,290416,,,A*69

$GPZDA,092834.000,29,04,2016,,*58

$GPGGA,092835.000,2332.9441,N,08717.5727,E,1,10,0.84,104.8,M,-52.8,M,,*4D

$GPGSA,A,3,07,11,08,01,28,30,09,23,13,17,,,1.13,0.84,0.77*06

$GPRMC,092835.000,A,2332.9441,N,08717.5727,E,0.02,99.84,290416,,,A*5B

$GPZDA,092835.000,29,04,2016,,*59

$GPGGA,092836.000,2332.9441,N,08717.5727,E,1,10,0.84,104.8,M,-52.8,M,,*4E

$GPGSA,A,3,07,11,08,01,28,30,09,23,13,17,,,1.13,0.84,0.77*06

$GPGSV,4,1,13,07,76,069,23,30,61,340,24,11,53,079,30,01,42,110,19*77

$GPGSV,4,2,13,17,38,231,22,28,36,311,30,09,26,191,20,42,25,106,*7F

$GPGSV,4,3,13,08,22,038,29,193,11,117,21,13,09,318,17,19,08,223,14*4A

$GPGSV,4,4,13,23,05,168,18*49

$GPRMC,092836.000,A,2332.9441,N,08717.5727,E,0.10,30.67,290416,,,A*55

$GPZDA,092836.000,29,04,2016,,*5A

$GPGGA,092837.000,2332.9442,N,08717.5727,E,1,10,0.84,104.8,M,-52.8,M,,*4C

$GPGSA,A,3,07,11,08,01,28,30,09,23,13,17,,,1.13,0.84,0.77*06

$GPRMC,092837.000,A,2332.9442,N,08717.5727,E,0.08,339.56,290416,,,A*66

$GPZDA,092837.000,29,04,2016,,*5B

$GPGGA,092838.000,2332.9442,N,08717.5727,E,1,10,0.84,104.8,M,-52.8,M,,*43

$GPGSA,A,3,07,11,08,01,28,30,09,23,13,17,,,1.13,0.84,0.77*06

$GPRMC,092838.000,A,2332.9442,N,08717.5727,E,0.08,173.18,290416,,,A*6F

$GPZDA,092838.000,29,04,2016,,*54

$GPGGA,092839.000,2332.9442,N,08717.5727,E,1,10,0.84,104.8,M,-52.8,M,,*42

$GPGSA,A,3,07,11,08,01,28,30,09,23,13,17,,,1.13,0.84,0.77*06

$GPRMC,092839.000,A,2332.9442,N,08717.5727,E,0.14,145.22,290416,,,A*6F

$GPZDA,092839.000,29,04,2016,,*55

$GPGGA,092840.000,2332.9442,N,08717.5727,E,1,10,0.84,104.7,M,-52.8,M,,*43

$GPGSA,A,3,07,11,08,01,28,30,09,23,13,17,,,1.13,0.84,0.77*06

$GPRMC,092840.000,A,2332.9442,N,08717.5727,E,0.10,213.41,290416,,,A*60

$GPZDA,092840.000,29,04,2016,,*5B

$GPGGA,092841.000,2332.9441,N,08717.5726,E,1,10,0.84,104.7,M,-52.8,M,,*40

$GPGSA,A,3,07,11,08,01,28,30,09,23,13,17,,,1.13,0.84,0.77*06

$GPGSV,4,1,13,07,76,069,23,30,61,340,25,11,53,079,29,01,42,110,19*7E

$GPGSV,4,2,13,17,38,231,23,28,36,311,28,09,26,191,24,08,22,038,29*7D

$GPGSV,4,3,13,50,21,104,,193,11,117,21,13,09,318,17,19,08,223,18*4D

$GPGSV,4,4,13,23,05,168,20*42

$GPRMC,092841.000,A,2332.9441,N,08717.5726,E,0.03,322.98,290416,,,A*66

$GPZDA,092841.000,29,04,2016,,*5A

$GPGGA,092842.000,2332.9442,N,08717.5726,E,1,10,0.84,104.7,M,-52.8,M,,*40

$GPGSA,A,3,07,11,08,01,28,30,09,23,13,17,,,1.13,0.84,0.77*06

$GPRMC,092842.000,A,2332.9442,N,08717.5726,E,0.11,3.73,290416,,,A*60

$GPZDA,092842.000,29,04,2016,,*59

$GPGGA,092843.000,2332.9442,N,08717.5726,E,1,10,0.85,104.8,M,-52.8,M,,*4F

$GPGSA,A,3,07,11,08,01,28,30,09,23,13,17,,,1.47,0.85,1.19*0F

$GPRMC,092843.000,A,2332.9442,N,08717.5726,E,0.19,346.60,290416,,,A*69

$GPZDA,092843.000,29,04,2016,,*58

$GPGGA,092844.000,2332.9442,N,08717.5726,E,1,10,0.85,104.8,M,-52.8,M,,*48

$GPGSA,A,3,07,11,08,01,28,30,09,23,13,17,,,1.46,0.85,1.19*0E

$GPRMC,092844.000,A,2332.9442,N,08717.5726,E,0.13,39.00,290416,,,A*59

$GPZDA,092844.000,29,04,2016,,*5F

$GPGGA,092845.000,2332.9443,N,08717.5726,E,1,10,0.84,104.8,M,-52.8,M,,*49

$GPGSA,A,3,07,11,08,01,28,30,09,23,13,17,,,1.13,0.84,0.77*06

$GPRMC,092845.000,A,2332.9443,N,08717.5726,E,0.13,19.10,290416,,,A*5A

$GPZDA,092845.000,29,04,2016,,*5E

$GPGGA,092846.000,2332.9443,N,08717.5727,E,1,10,0.84,104.8,M,-52.8,M,,*4B

$GPGSA,A,3,07,11,08,01,28,30,09,23,13,17,,,1.13,0.84,0.77*06

$GPGSV,4,1,13,07,76,069,19,30,61,340,24,11,53,079,25,01,42,109,18*73

$GPGSV,4,2,13,17,38,231,22,28,36,311,30,09,26,191,22,08,22,038,29*73

$GPGSV,4,3,13,50,21,104,,193,11,117,21,13,09,318,19,19,08,223,19*42

$GPGSV,4,4,13,23,05,168,20*42

$GPRMC,092846.000,A,2332.9443,N,08717.5727,E,0.09,15.71,290416,,,A*58

$GPZDA,092846.000,29,04,2016,,*5D

$GPGGA,092847.000,2332.9443,N,08717.5727,E,1,10,0.84,104.8,M,-52.8,M,,*4A

$GPGSA,A,3,07,11,08,01,28,30,09,23,13,17,,,1.13,0.84,0.77*06

$GPRMC,092847.000,A,2332.9443,N,08717.5727,E,0.05,22.49,290416,,,A*5A

$GPZDA,092847.000,29,04,2016,,*5C

$GPGGA,092848.000,2332.9443,N,08717.5727,E,1,10,0.84,104.8,M,-52.8,M,,*45

$GPGSA,A,3,07,11,08,01,28,30,09,23,13,17,,,1.13,0.84,0.77*06

$GPRMC,092848.000,A,2332.9443,N,08717.5727,E,0.12,345.24,290416,,,A*6A

$GPZDA,092848.000,29,04,2016,,*53

$GPGGA,092849.000,2332.9444,N,08717.5727,E,1,10,0.85,104.8,M,-52.8,M,,*42

$GPGSA,A,3,07,11,08,01,28,30,09,23,13,17,,,1.46,0.85,1.19*0E

$GPRMC,092849.000,A,2332.9444,N,08717.5727,E,0.12,314.81,290416,,,A*67

$GPZDA,092849.000,29,04,2016,,*52

$GPGGA,092850.000,2332.9444,N,08717.5726,E,1,10,0.84,104.8,M,-52.8,M,,*4A

$GPGSA,A,3,07,11,08,01,28,30,09,23,13,17,,,1.13,0.84,0.77*06

$GPRMC,092850.000,A,2332.9444,N,08717.5726,E,0.16,277.44,290416,,,A*67

$GPZDA,092850.000,29,04,2016,,*5A

$GPGGA,092851.000,2332.9444,N,08717.5726,E,1,10,0.84,104.8,M,-52.8,M,,*4B

$GPGSA,A,3,07,11,08,01,28,30,09,23,13,17,,,1.13,0.84,0.77*06

$GPGSV,4,1,13,07,76,071,20,30,61,340,24,11,53,079,25,01,42,109,18*70

$GPGSV,4,2,13,17,38,231,22,28,36,311,27,09,26,191,21,08,22,038,29*76

$GPGSV,4,3,13,39,16,257,,193,11,117,21,13,09,318,20,19,08,223,18*47

$GPGSV,4,4,13,23,05,168,18*49

$GPRMC,092851.000,A,2332.9444,N,08717.5726,E,0.11,276.12,290416,,,A*63

$GPZDA,092851.000,29,04,2016,,*5B

$GPGGA,092852.000,2332.9444,N,08717.5725,E,1,10,0.84,104.8,M,-52.8,M,,*4B

$GPGSA,A,3,07,11,08,01,28,30,09,23,13,17,,,1.13,0.84,0.77*06

$GPRMC,092852.000,A,2332.9444,N,08717.5725,E,0.08,253.52,290416,,,A*68

$GPZDA,092852.000,29,04,2016,,*58

$GPGGA,092853.000,2332.9444,N,08717.5725,E,1,10,0.84,104.8,M,-52.8,M,,*4A

$GPGSA,A,3,07,11,08,01,28,30,09,23,13,17,,,1.13,0.84,0.77*06

$GPRMC,092853.000,A,2332.9444,N,08717.5725,E,0.09,31.25,290416,,,A*5E

$GPZDA,092853.000,29,04,2016,,*59

$GPGGA,092854.000,2332.9444,N,08717.5725,E,1,10,0.84,104.8,M,-52.8,M,,*4D

$GPGSA,A,3,07,11,08,01,28,30,09,23,13,17,,,1.13,0.84,0.77*06

$GPRMC,092854.000,A,2332.9444,N,08717.5725,E,0.18,39.44,290416,,,A*56

$GPZDA,092854.000,29,04,2016,,*5E

$GPGGA,092855.000,2332.9445,N,08717.5726,E,1,10,0.84,104.8,M,-52.8,M,,*4E

$GPGSA,A,3,07,11,08,01,28,30,09,23,13,17,,,1.13,0.84,0.77*06

$GPRMC,092855.000,A,2332.9445,N,08717.5726,E,0.22,33.41,290416,,,A*53

$GPZDA,092855.000,29,04,2016,,*5F

$GPGGA,092856.000,2332.9445,N,08717.5726,E,1,10,0.84,104.8,M,-52.8,M,,*4D

$GPGSA,A,3,07,11,08,01,28,30,09,23,13,17,,,1.13,0.84,0.77*06

$GPGSV,4,1,13,07,76,071,25,30,61,340,22,11,53,079,25,01,42,109,15*7E

$GPGSV,4,2,13,17,38,231,13,28,36,311,26,09,26,191,22,08,22,038,29*76

$GPGSV,4,3,13,39,16,257,,193,11,117,22,13,09,318,24,19,08,223,16*4E

$GPGSV,4,4,13,23,05,168,18*49

$GPRMC,092856.000,A,2332.9445,N,08717.5726,E,0.22,28.11,290416,,,A*5F

$GPZDA,092856.000,29,04,2016,,*5C

$GPGGA,092857.000,2332.9446,N,08717.5726,E,1,10,0.84,104.8,M,-52.8,M,,*4F

$GPGSA,A,3,07,11,08,01,28,30,09,23,13,17,,,1.13,0.84,0.77*06

$GPRMC,092857.000,A,2332.9446,N,08717.5726,E,0.08,345.52,290416,,,A*6A

$GPZDA,092857.000,29,04,2016,,*5D

$GPGGA,092858.000,2332.9446,N,08717.5726,E,1,10,0.85,104.8,M,-52.8,M,,*41

$GPGSA,A,3,07,11,08,01,28,30,09,23,13,17,,,1.46,0.85,1.19*0E

$GPRMC,092858.000,A,2332.9446,N,08717.5726,E,0.16,24.33,290416,,,A*59

$GPZDA,092858.000,29,04,2016,,*52

$GPGGA,092859.000,2332.9446,N,08717.5726,E,1,10,0.84,104.8,M,-52.8,M,,*41

$GPGSA,A,3,07,11,08,01,28,30,09,23,13,17,,,1.13,0.84,0.77*06

$GPRMC,092859.000,A,2332.9446,N,08717.5726,E,0.11,35.16,290416,,,A*58

$GPZDA,092859.000,29,04,2016,,*53

$GPGGA,092900.000,2332.9447,N,08717.5727,E,1,10,0.84,104.8,M,-52.8,M,,*4C

$GPGSA,A,3,07,11,08,01,28,30,09,23,13,17,,,1.13,0.84,0.77*06

$GPRMC,092900.000,A,2332.9447,N,08717.5727,E,0.06,23.21,290416,,,A*50

$GPZDA,092900.000,29,04,2016,,*5E

$GPGGA,092901.000,2332.9447,N,08717.5727,E,1,10,0.84,104.8,M,-52.8,M,,*4D

$GPGSA,A,3,07,11,08,01,28,30,09,23,13,17,,,1.13,0.84,0.77*06

$GPGSV,4,1,13,07,76,071,20,30,61,340,24,11,53,079,24,01,42,109,20*7A

$GPGSV,4,2,13,17,38,231,14,28,36,311,24,09,26,191,21,08,22,038,29*70

$GPGSV,4,3,13,37,13,259,,193,11,117,22,13,09,318,21,19,08,223,16*4E

$GPGSV,4,4,13,23,05,168,17*46

$GPRMC,092901.000,A,2332.9447,N,08717.5727,E,0.04,299.65,290416,,,A*60

$GPZDA,092901.000,29,04,2016,,*5F

$GPGGA,092902.000,2332.9447,N,08717.5727,E,1,10,0.84,104.8,M,-52.8,M,,*4E

$GPGSA,A,3,07,11,08,01,28,30,09,23,13,17,,,1.13,0.84,0.77*06

$GPRMC,092902.000,A,2332.9447,N,08717.5727,E,0.15,225.91,290416,,,A*6F

$GPZDA,092902.000,29,04,2016,,*5C

$GPGGA,092903.000,2332.9446,N,08717.5726,E,1,10,0.84,104.8,M,-52.8,M,,*4F

$GPGSA,A,3,07,11,08,01,28,30,09,23,13,17,,,1.13,0.84,0.77*06

$GPRMC,092903.000,A,2332.9446,N,08717.5726,E,0.17,202.21,290416,,,A*62

$GPZDA,092903.000,29,04,2016,,*5D

$GPGGA,092904.000,2332.9446,N,08717.5726,E,1,10,0.84,104.8,M,-52.8,M,,*48

$GPGSA,A,3,07,11,08,01,28,30,09,23,13,17,,,1.13,0.84,0.77*06

$GPRMC,092904.000,A,2332.9446,N,08717.5726,E,0.02,139.75,290416,,,A*6B

$GPZDA,092904.000,29,04,2016,,*5A

$GPGGA,092905.000,2332.9446,N,08717.5726,E,1,10,0.84,104.8,M,-52.8,M,,*49

$GPGSA,A,3,07,11,08,01,28,30,09,23,13,17,,,1.13,0.84,0.77*06

$GPRMC,092905.000,A,2332.9446,N,08717.5726,E,0.08,229.73,290416,,,A*64

$GPZDA,092905.000,29,04,2016,,*5B

$GPGGA,092906.000,2332.9446,N,08717.5726,E,1,10,0.84,104.8,M,-52.8,M,,*4A

$GPGSA,A,3,07,11,08,01,28,30,09,23,13,17,,,1.13,0.84,0.77*06

$GPGSV,4,1,13,07,76,071,20,30,61,340,26,11,53,079,24,01,42,109,23*7B

$GPGSV,4,2,13,17,38,231,15,28,36,311,23,09,26,191,22,08,22,038,27*7B

$GPGSV,4,3,13,37,13,259,,193,11,117,20,13,09,318,17,19,08,223,15*4A

$GPGSV,4,4,13,23,05,168,16*47

$GPRMC,092906.000,A,2332.9446,N,08717.5726,E,0.09,227.77,290416,,,A*6C

$GPZDA,092906.000,29,04,2016,,*58

$GPGGA,092907.000,2332.9446,N,08717.5726,E,1,10,0.84,104.8,M,-52.8,M,,*4B

$GPGSA,A,3,07,11,08,01,28,30,09,23,13,17,,,1.13,0.84,0.77*06

$GPRMC,092907.000,A,2332.9446,N,08717.5726,E,0.15,208.58,290416,,,A*60

$GPZDA,092907.000,29,04,2016,,*59

$GPGGA,092908.000,2332.9445,N,08717.5725,E,1,10,0.84,104.8,M,-52.8,M,,*44

$GPGSA,A,3,07,11,08,01,28,30,09,23,13,17,,,1.13,0.84,0.77*06

$GPRMC,092908.000,A,2332.9445,N,08717.5725,E,0.10,203.11,290416,,,A*6C

$GPZDA,092908.000,29,04,2016,,*56

$GPGGA,092909.000,2332.9445,N,08717.5725,E,1,10,0.84,104.8,M,-52.8,M,,*45

$GPGSA,A,3,07,11,08,01,28,30,09,23,13,17,,,1.13,0.84,0.77*06

$GPRMC,092909.000,A,2332.9445,N,08717.5725,E,0.13,214.43,290416,,,A*6F

$GPZDA,092909.000,29,04,2016,,*57

$GPGGA,092910.000,2332.9445,N,08717.5725,E,1,10,0.84,104.8,M,-52.8,M,,*4D

$GPGSA,A,3,07,11,08,01,28,30,09,23,13,17,,,1.13,0.84,0.77*06

$GPRMC,092910.000,A,2332.9445,N,08717.5725,E,0.18,232.51,290416,,,A*6B

$GPZDA,092910.000,29,04,2016,,*5F

$GPGGA,092911.000,2332.9445,N,08717.5725,E,1,10,0.84,104.8,M,-52.8,M,,*4C

$GPGSA,A,3,07,11,08,01,28,30,09,23,13,17,,,1.13,0.84,0.77*06

$GPGSV,4,1,13,07,76,071,21,41,62,190,,30,61,340,30,11,53,079,24*7A

$GPGSV,4,2,13,01,42,109,21,17,38,231,16,28,36,311,22,09,26,191,23*72

$GPGSV,4,3,13,08,22,038,27,193,11,117,22,13,09,318,15,19,08,223,14*45

$GPGSV,4,4,13,23,05,168,15*44

$GPRMC,092911.000,A,2332.9445,N,08717.5725,E,0.21,229.27,290416,,,A*6B

$GPZDA,092911.000,29,04,2016,,*5E

$GPGGA,092912.000,2332.9444,N,08717.5724,E,1,10,0.84,104.8,M,-52.8,M,,*4F

$GPGSA,A,3,07,11,08,01,28,30,09,23,13,17,,,1.13,0.84,0.77*06

$GPRMC,092912.000,A,2332.9444,N,08717.5724,E,0.27,233.82,290416,,,A*6A

$GPZDA,092912.000,29,04,2016,,*5D

$GPGGA,092913.000,2332.9444,N,08717.5723,E,1,11,0.78,104.8,M,-52.8,M,,*4B

$GPGSA,A,3,07,11,08,01,28,30,09,23,13,17,19,,1.09,0.78,0.76*07

$GPRMC,092913.000,A,2332.9444,N,08717.5723,E,0.21,229.93,290416,,,A*61

$GPZDA,092913.000,29,04,2016,,*5C

$GPGGA,092914.000,2332.9444,N,08717.5723,E,1,11,0.78,104.8,M,-52.8,M,,*4C

$GPGSA,A,3,07,11,08,01,28,30,09,23,13,17,19,,1.09,0.78,0.76*07

$GPRMC,092914.000,A,2332.9444,N,08717.5723,E,0.16,218.74,290416,,,A*69

$GPZDA,092914.000,29,04,2016,,*5B

$GPGGA,092915.000,2332.9445,N,08717.5725,E,1,11,0.78,104.7,M,-52.8,M,,*45

$GPGSA,A,3,07,11,08,01,28,30,09,23,13,17,19,,1.09,0.78,0.75*04

$GPRMC,092915.000,A,2332.9445,N,08717.5725,E,0.16,183.23,290416,,,A*6C

$GPZDA,092915.000,29,04,2016,,*5A

$GPGGA,092916.000,2332.9446,N,08717.5727,E,1,11,0.79,104.6,M,-52.8,M,,*47

$GPGSA,A,3,07,11,08,01,28,30,09,23,13,17,19,,1.09,0.79,0.75*05

$GPGSV,4,1,13,07,76,071,25,41,62,190,,30,61,340,33,11,53,079,25*7C

$GPGSV,4,2,13,01,42,109,24,17,38,231,18,28,36,311,21,09,26,191,22*7B

$GPGSV,4,3,13,08,22,038,25,193,11,117,20,13,09,318,18,19,08,223,17*4B

$GPGSV,4,4,13,23,05,168,15*44

$GPRMC,092916.000,A,2332.9446,N,08717.5727,E,0.07,196.09,290416,,,A*62

$GPZDA,092916.000,29,04,2016,,*59

$GPGGA,092917.000,2332.9446,N,08717.5730,E,1,11,0.78,104.4,M,-52.8,M,,*43

$GPGSA,A,3,07,11,08,01,28,30,09,23,13,17,19,,1.09,0.78,0.75*04

$GPRMC,092917.000,A,2332.9446,N,08717.5730,E,0.15,156.36,290416,,,A*66

$GPZDA,092917.000,29,04,2016,,*58

$GPGGA,092918.000,2332.9445,N,08717.5734,E,1,11,0.78,104.3,M,-52.8,M,,*4C

$GPGSA,A,3,07,11,08,01,28,30,09,23,13,17,19,,1.09,0.78,0.75*04

$GPRMC,092918.000,A,2332.9445,N,08717.5734,E,0.25,139.37,290416,,,A*65

$GPZDA,092918.000,29,04,2016,,*57

$GPGGA,092919.000,2332.9445,N,08717.5734,E,1,11,0.78,104.3,M,-52.8,M,,*4D

$GPGSA,A,3,07,11,08,01,28,30,09,23,13,17,19,,1.09,0.78,0.75*04

$GPRMC,092919.000,A,2332.9445,N,08717.5734,E,0.36,117.36,290416,,,A*6B

$GPZDA,092919.000,29,04,2016,,*56

$GPGGA,092920.000,2332.9444,N,08717.5735,E,1,11,0.79,104.3,M,-52.8,M,,*46

$GPGSA,A,3,07,11,08,01,28,30,09,23,13,17,19,,1.09,0.79,0.75*05

$GPRMC,092920.000,A,2332.9444,N,08717.5735,E,0.40,110.56,290416,,,A*61

$GPZDA,092920.000,29,04,2016,,*5C

$GPGGA,092921.000,2332.9444,N,08717.5736,E,1,11,0.78,104.3,M,-52.8,M,,*45

$GPGSA,A,3,07,11,08,01,28,30,09,23,13,17,19,,1.09,0.78,0.75*04

$GPGSV,4,1,13,07,76,071,21,30,61,340,34,11,53,079,27,44,53,225,*77

$GPGSV,4,2,13,01,42,109,25,17,38,231,13,28,36,311,18,09,26,191,22*7B

$GPGSV,4,3,13,08,22,038,24,193,11,117,19,13,09,318,17,19,08,223,17*4F

$GPGSV,4,4,13,23,05,168,18*49

$GPRMC,092921.000,A,2332.9444,N,08717.5736,E,0.26,123.76,290416,,,A*61

$GPZDA,092921.000,29,04,2016,,*5D

$GPGGA,092922.000,2332.9444,N,08717.5737,E,1,11,0.78,104.3,M,-52.8,M,,*47

$GPGSA,A,3,07,11,08,01,28,30,09,23,13,17,19,,1.09,0.78,0.75*04

$GPRMC,092922.000,A,2332.9444,N,08717.5737,E,0.14,112.84,290416,,,A*6D

$GPZDA,092922.000,29,04,2016,,*5E

$GPGGA,092923.000,2332.9443,N,08717.5737,E,1,10,0.84,104.3,M,-52.8,M,,*43

$GPGSA,A,3,07,11,08,01,28,30,09,23,13,17,,,1.13,0.84,0.77*06

$GPRMC,092923.000,A,2332.9443,N,08717.5737,E,0.21,106.30,290416,,,A*67

$GPZDA,092923.000,29,04,2016,,*5F

$GPGGA,092924.000,2332.9443,N,08717.5738,E,1,10,0.84,104.3,M,-52.8,M,,*4B

$GPGSA,A,3,07,11,08,01,28,30,09,23,13,17,,,1.13,0.84,0.77*06

$GPRMC,092924.000,A,2332.9443,N,08717.5738,E,0.28,111.59,290416,,,A*6F

$GPZDA,092924.000,29,04,2016,,*58

$GPGGA,092925.000,2332.9443,N,08717.5739,E,1,10,0.84,104.3,M,-52.8,M,,*4B

$GPGSA,A,3,07,11,08,01,28,30,09,23,13,17,,,1.13,0.84,0.77*06

$GPRMC,092925.000,A,2332.9443,N,08717.5739,E,0.14,116.71,290416,,,A*6D

$GPZDA,092925.000,29,04,2016,,*59

$GPGGA,092926.000,2332.9443,N,08717.5739,E,1,10,0.84,104.3,M,-52.8,M,,*48

$GPGSA,A,3,07,11,08,01,28,30,09,23,13,17,,,1.13,0.84,0.77*06

$GPGSV,4,1,13,07,76,072,20,30,61,340,34,11,53,079,22,44,53,225,*70

$GPGSV,4,2,13,01,42,109,24,17,38,231,22,28,36,311,17,09,26,191,24*71

$GPGSV,4,3,13,08,22,038,21,193,11,117,18,13,09,318,18,19,08,223,17*44

$GPGSV,4,4,13,23,05,168,16*47

$GPRMC,092926.000,A,2332.9443,N,08717.5739,E,0.04,86.34,290416,,,A*56

$GPZDA,092926.000,29,04,2016,,*5A

$GPGGA,092927.000,2332.9443,N,08717.5739,E,1,10,0.84,104.3,M,-52.8,M,,*49

$GPGSA,A,3,07,11,08,01,28,30,09,23,13,17,,,1.13,0.84,0.77*06

$GPRMC,092927.000,A,2332.9443,N,08717.5739,E,0.09,170.62,290416,,,A*61

$GPZDA,092927.000,29,04,2016,,*5B

$GPGGA,092928.000,2332.9443,N,08717.5739,E,1,10,0.84,104.3,M,-52.8,M,,*46

$GPGSA,A,3,07,11,08,01,28,30,09,23,13,17,,,1.13,0.84,0.77*06

$GPRMC,092928.000,A,2332.9443,N,08717.5739,E,0.11,183.81,290416,,,A*66

$GPZDA,092928.000,29,04,2016,,*54

$GPGGA,092929.000,2332.9442,N,08717.5739,E,1,10,0.84,104.3,M,-52.8,M,,*46

$GPGSA,A,3,07,11,08,01,28,30,09,23,13,17,,,1.13,0.84,0.77*06

$GPRMC,092929.000,A,2332.9442,N,08717.5739,E,0.13,254.92,290416,,,A*6F

$GPZDA,092929.000,29,04,2016,,*55

$GPGGA,092930.000,2332.9442,N,08717.5739,E,1,10,0.84,104.3,M,-52.8,M,,*4E

$GPGSA,A,3,07,11,08,01,28,30,09,23,13,17,,,1.13,0.84,0.77*06

$GPRMC,092930.000,A,2332.9442,N,08717.5739,E,0.20,247.37,290416,,,A*6A

$GPZDA,092930.000,29,04,2016,,*5D

$GPGGA,092931.000,2332.9442,N,08717.5738,E,1,10,0.83,104.3,M,-52.8,M,,*49

$GPGSA,A,3,07,11,08,01,28,30,09,23,13,17,,,1.13,0.83,0.77*01

$GPGSV,4,1,13,07,76,072,22,30,61,340,33,11,53,078,16,40,44,237,27*77

$GPGSV,4,2,13,01,42,109,21,17,38,231,18,28,36,311,19,09,26,191,24*73

$GPGSV,4,3,13,08,22,038,19,193,11,117,18,13,10,317,19,19,08,223,18*46

$GPGSV,4,4,13,23,05,168,17*46

$GPRMC,092931.000,A,2332.9442,N,08717.5738,E,0.27,256.24,290416,,,A*6F

$GPZDA,092931.000,29,04,2016,,*5C

$GPGGA,092932.000,2332.9442,N,08717.5738,E,1,10,0.83,104.3,M,-52.8,M,,*4A

$GPGSA,A,3,07,11,08,01,28,30,09,23,13,17,,,1.13,0.83,0.76*00

$GPRMC,092932.000,A,2332.9442,N,08717.5738,E,0.33,255.27,290416,,,A*69

$GPZDA,092932.000,29,04,2016,,*5F

$GPGGA,092933.000,2332.9441,N,08717.5737,E,1,10,0.84,104.3,M,-52.8,M,,*40

$GPGSA,A,3,07,11,08,01,28,30,09,23,13,17,,,1.13,0.84,0.76*07

$GPRMC,092933.000,A,2332.9441,N,08717.5737,E,0.34,249.45,290416,,,A*6A

$GPZDA,092933.000,29,04,2016,,*5E

$GPGGA,092934.000,2332.9441,N,08717.5736,E,1,10,0.84,104.3,M,-52.8,M,,*46

$GPGSA,A,3,07,11,08,01,28,30,09,23,13,17,,,1.13,0.84,0.76*07

$GPRMC,092934.000,A,2332.9441,N,08717.5736,E,0.35,242.66,290416,,,A*67

$GPZDA,092934.000,29,04,2016,,*59

$GPGGA,092935.000,2332.9441,N,08717.5735,E,1,10,0.84,104.3,M,-52.8,M,,*44

$GPGSA,A,3,07,11,08,01,28,30,09,23,13,17,,,1.13,0.84,0.77*06

$GPRMC,092935.000,A,2332.9441,N,08717.5735,E,0.40,255.40,290416,,,A*65

$GPZDA,092935.000,29,04,2016,,*58

$GPGGA,092936.000,2332.9440,N,08717.5734,E,1,10,0.84,104.3,M,-52.8,M,,*47

$GPGSA,A,3,07,11,08,01,28,30,09,23,13,17,,,1.13,0.84,0.76*07

$GPGSV,4,1,13,07,76,072,21,30,61,340,33,11,53,078,15,40,44,237,26*76

$GPGSV,4,2,13,01,42,109,24,17,38,231,19,28,36,311,23,09,26,191,21*7B

$GPGSV,4,3,13,08,22,038,15,193,11,117,18,13,10,317,22,19,08,223,17*4D

$GPGSV,4,4,13,23,05,168,17*46

$GPRMC,092936.000,A,2332.9440,N,08717.5734,E,0.37,265.64,290416,,,A*63

$GPZDA,092936.000,29,04,2016,,*5B

$GPGGA,092937.000,2332.9440,N,08717.5732,E,1,10,0.84,104.3,M,-52.8,M,,*40

$GPGSA,A,3,07,11,08,01,28,30,09,23,13,17,,,1.13,0.84,0.76*07

$GPRMC,092937.000,A,2332.9440,N,08717.5732,E,0.36,253.59,290416,,,A*6E

$GPZDA,092937.000,29,04,2016,,*5A

$GPGGA,092938.000,2332.9440,N,08717.5731,E,1,10,0.84,104.3,M,-52.8,M,,*4C

$GPGSA,A,3,07,11,08,01,28,30,09,23,13,17,,,1.13,0.84,0.76*07

$GPRMC,092938.000,A,2332.9440,N,08717.5731,E,0.33,246.92,290416,,,A*64

$GPZDA,092938.000,29,04,2016,,*55

$GPGGA,092939.000,2332.9440,N,08717.5730,E,1,10,0.84,104.3,M,-52.8,M,,*4C

$GPGSA,A,3,07,11,08,01,28,30,09,23,13,17,,,1.13,0.84,0.76*07

$GPRMC,092939.000,A,2332.9440,N,08717.5730,E,0.40,239.08,290416,,,A*6B

$GPZDA,092939.000,29,04,2016,,*54

$GPGGA,092940.000,2332.9439,N,08717.5729,E,1,10,0.84,104.3,M,-52.8,M,,*44

$GPGSA,A,3,07,11,08,01,28,30,09,23,13,17,,,1.13,0.84,0.76*07

$GPRMC,092940.000,A,2332.9439,N,08717.5729,E,0.39,231.40,290416,,,A*69

$GPZDA,092940.000,29,04,2016,,*5A

$GPGGA,092941.000,2332.9438,N,08717.5729,E,1,10,0.84,104.3,M,-52.8,M,,*44

$GPGSA,A,3,07,11,08,01,28,30,09,23,13,17,,,1.13,0.84,0.76*07

$GPGSV,4,1,13,07,76,072,24,30,61,340,31,11,53,078,15,40,44,237,25*72

$GPGSV,4,2,13,01,42,109,25,17,38,231,18,28,36,311,24,09,26,191,19*77

$GPGSV,4,3,13,08,22,038,11,193,11,117,19,13,10,317,25,19,08,223,16*4E

$GPGSV,4,4,13,23,05,168,17*46

$GPRMC,092941.000,A,2332.9438,N,08717.5729,E,0.38,216.60,290416,,,A*6F

$GPZDA,092941.000,29,04,2016,,*5B

$GPGGA,092942.000,2332.9437,N,08717.5728,E,1,10,0.84,104.2,M,-52.8,M,,*48

$GPGSA,A,3,07,11,08,01,28,30,09,23,13,17,,,1.13,0.84,0.76*07

$GPRMC,092942.000,A,2332.9437,N,08717.5728,E,0.44,212.65,290416,,,A*68

$GPZDA,092942.000,29,04,2016,,*58

$GPGGA,092943.000,2332.9436,N,08717.5727,E,1,10,0.84,104.2,M,-52.8,M,,*47

$GPGSA,A,3,07,11,08,01,28,30,09,23,13,17,,,1.13,0.84,0.76*07

$GPRMC,092943.000,A,2332.9436,N,08717.5727,E,0.44,200.73,290416,,,A*63

$GPZDA,092943.000,29,04,2016,,*59

$GPGGA,092944.000,2332.9435,N,08717.5726,E,1,10,0.84,104.2,M,-52.8,M,,*42

$GPGSA,A,3,07,11,08,01,28,30,09,23,13,17,,,1.13,0.84,0.76*07

$GPRMC,092944.000,A,2332.9435,N,08717.5726,E,0.45,192.59,290416,,,A*67

$GPZDA,092944.000,29,04,2016,,*5E

$GPGGA,092945.000,2332.9434,N,08717.5726,E,1,10,0.84,104.2,M,-52.8,M,,*42

$GPGSA,A,3,07,11,08,01,28,30,09,23,13,17,,,1.13,0.84,0.76*07

$GPRMC,092945.000,A,2332.9434,N,08717.5726,E,0.44,194.18,290416,,,A*65

$GPZDA,092945.000,29,04,2016,,*5F

$GPGGA,092946.000,2332.9433,N,08717.5726,E,1,10,0.84,104.2,M,-52.8,M,,*46

$GPGSA,A,3,07,11,08,01,28,30,09,23,13,17,,,1.13,0.84,0.76*07

$GPGSV,4,1,13,07,76,072,21,30,61,340,32,11,53,078,20,01,42,109,27*7D

$GPGSV,4,2,13,17,38,231,14,28,36,311,28,09,26,191,20,42,25,106,*73

$GPGSV,4,3,13,08,22,038,16,193,11,117,20,13,10,317,27,19,08,223,16*41

$GPGSV,4,4,13,23,05,168,16*47

$GPRMC,092946.000,A,2332.9433,N,08717.5726,E,0.52,213.98,290416,,,A*62

$GPZDA,092946.000,29,04,2016,,*5C

$GPGGA,092947.000,2332.9431,N,08717.5725,E,1,10,0.84,104.2,M,-52.8,M,,*46

$GPGSA,A,3,07,11,08,01,28,30,09,23,13,17,,,1.13,0.84,0.76*07

$GPRMC,092947.000,A,2332.9431,N,08717.5725,E,0.49,212.81,290416,,,A*61

$GPZDA,092947.000,29,04,2016,,*5D

$GPGGA,092948.000,2332.9430,N,08717.5724,E,1,10,0.84,104.2,M,-52.8,M,,*49

$GPGSA,A,3,07,11,08,01,28,30,09,23,13,17,,,1.13,0.84,0.76*07

$GPRMC,092948.000,A,2332.9430,N,08717.5724,E,0.49,164.66,290416,,,A*65

$GPZDA,092948.000,29,04,2016,,*52

$GPGGA,092949.000,2332.9429,N,08717.5724,E,1,10,0.84,104.3,M,-52.8,M,,*41

$GPGSA,A,3,07,11,08,01,28,30,09,23,13,17,,,1.13,0.84,0.76*07

$GPRMC,092949.000,A,2332.9429,N,08717.5724,E,0.38,125.09,290416,,,A*66

$GPZDA,092949.000,29,04,2016,,*53

$GPGGA,092950.000,2332.9428,N,08717.5725,E,1,10,0.84,104.3,M,-52.8,M,,*49

$GPGSA,A,3,07,11,08,01,28,30,09,23,13,17,,,1.13,0.84,0.76*07

$GPRMC,092950.000,A,2332.9428,N,08717.5725,E,0.52,50.93,290416,,,A*52

$GPZDA,092950.000,29,04,2016,,*5B

$GPGGA,092951.000,2332.9429,N,08717.5726,E,1,10,0.84,104.3,M,-52.8,M,,*4A

$GPGSA,A,3,07,11,08,01,28,30,09,23,13,17,,,1.13,0.84,0.76*07

$GPGSV,4,1,13,07,76,072,25,30,61,340,31,11,53,078,21,01,42,109,29*75

$GPGSV,4,2,13,17,38,231,18,28,36,311,30,09,26,191,24,08,22,038,15*73

$GPGSV,4,3,13,50,21,104,,193,11,117,22,13,10,317,28,19,08,223,16*4B

$GPGSV,4,4,13,23,05,168,15*44

$GPRMC,092951.000,A,2332.9429,N,08717.5726,E,0.30,20.33,290416,,,A*58

$GPZDA,092951.000,29,04,2016,,*5A

$GPGGA,092952.000,2332.9430,N,08717.5726,E,1,10,0.84,104.3,M,-52.8,M,,*41

$GPGSA,A,3,07,11,08,01,28,30,09,23,13,17,,,1.13,0.84,0.76*07

$GPRMC,092952.000,A,2332.9430,N,08717.5726,E,0.16,237.90,290416,,,A*6A

$GPZDA,092952.000,29,04,2016,,*59

$GPGGA,092953.000,2332.9430,N,08717.5725,E,1,10,0.84,104.3,M,-52.8,M,,*43

$GPGSA,A,3,07,11,08,01,28,30,09,23,13,17,,,1.13,0.84,0.76*07

$GPRMC,092953.000,A,2332.9430,N,08717.5725,E,0.22,82.28,290416,,,A*50

$GPZDA,092953.000,29,04,2016,,*58

$GPGGA,092954.000,2332.9430,N,08717.5726,E,1,10,0.83,104.3,M,-52.8,M,,*40

$GPGSA,A,3,07,11,08,01,28,30,09,23,13,17,,,1.13,0.83,0.76*00

$GPRMC,092954.000,A,2332.9430,N,08717.5726,E,0.31,80.51,290416,,,A*5A

$GPZDA,092954.000,29,04,2016,,*5F

$GPGGA,092955.000,2332.9430,N,08717.5727,E,1,10,0.84,104.3,M,-52.8,M,,*47

$GPGSA,A,3,07,11,08,01,28,30,09,23,13,17,,,1.13,0.84,0.76*07

$GPRMC,092955.000,A,2332.9430,N,08717.5727,E,0.10,11.47,290416,,,A*56

$GPZDA,092955.000,29,04,2016,,*5E

$GPGGA,092956.000,2332.9430,N,08717.5727,E,1,10,0.85,104.3,M,-52.8,M,,*45

$GPGSA,A,3,07,11,08,01,28,30,09,23,13,17,,,1.46,0.85,1.19*0E

$GPGSV,4,1,13,07,76,072,25,30,61,340,25,11,53,078,22,01,43,109,28*73

$GPGSV,4,2,13,17,38,231,20,28,36,311,28,09,26,191,24,08,22,038,19*7D

$GPGSV,4,3,13,50,21,104,,193,11,117,22,13,10,317,24,19,08,223,17*46

$GPGSV,4,4,13,23,05,168,16*47

$GPRMC,092956.000,A,2332.9430,N,08717.5727,E,0.21,80.54,290416,,,A*5D

$GPZDA,092956.000,29,04,2016,,*5D

$GPGGA,092957.000,2332.9428,N,08717.5719,E,1,10,0.84,104.3,M,-52.8,M,,*41

$GPGSA,A,3,07,11,08,01,28,30,09,23,13,17,,,1.13,0.84,0.76*07

$GPRMC,092957.000,A,2332.9428,N,08717.5719,E,0.07,80.78,290416,,,A*52

$GPZDA,092957.000,29,04,2016,,*5C

$GPGGA,092958.000,2332.9427,N,08717.5717,E,1,10,0.84,104.3,M,-52.8,M,,*4F

$GPGSA,A,3,07,11,08,01,28,30,09,23,13,17,,,1.13,0.84,0.76*07

$GPRMC,092958.000,A,2332.9427,N,08717.5717,E,0.29,150.06,290416,,,A*65

$GPZDA,092958.000,29,04,2016,,*53

$GPGGA,092959.000,2332.9423,N,08717.5706,E,1,10,0.84,104.2,M,-52.8,M,,*4B

$GPGSA,A,3,07,11,08,01,28,30,09,23,13,17,,,1.13,0.84,0.76*07

$GPRMC,092959.000,A,2332.9423,N,08717.5706,E,0.31,181.21,290416,,,A*60

$GPZDA,092959.000,29,04,2016,,*52

$GPGGA,093000.000,2332.9418,N,08717.5699,E,1,10,0.84,104.2,M,-52.8,M,,*40

$GPGSA,A,3,07,11,08,01,28,30,09,23,13,17,,,1.13,0.84,0.76*07

$GPRMC,093000.000,A,2332.9418,N,08717.5699,E,0.63,142.74,290416,,,A*63

$GPZDA,093000.000,29,04,2016,,*56

$GPGGA,093001.000,2332.9418,N,08717.5699,E,1,10,0.84,104.2,M,-52.8,M,,*41

$GPGSA,A,3,07,11,08,01,28,30,09,23,13,17,,,1.13,0.84,0.76*07

$GPGSV,4,1,13,07,76,073,23,30,61,340,25,11,53,078,25,01,43,109,26*7D

$GPGSV,4,2,13,17,38,231,21,28,36,311,27,09,26,191,24,08,21,038,21*7B

$GPGSV,4,3,13,50,21,104,26,193,11,117,22,13,10,317,23,19,08,223,22*43

$GPGSV,4,4,13,23,05,168,15*44

$GPRMC,093001.000,A,2332.9418,N,08717.5699,E,0.23,183.34,290416,,,A*6F

$GPZDA,093001.000,29,04,2016,,*57

$GPGGA,093002.000,2332.9419,N,08717.5699,E,1,10,0.83,104.2,M,-52.8,M,,*44

$GPGSA,A,3,07,11,08,01,28,30,09,23,13,17,,,1.13,0.83,0.76*00

$GPRMC,093002.000,A,2332.9419,N,08717.5699,E,0.19,342.04,290416,,,A*68

$GPZDA,093002.000,29,04,2016,,*54

$GPGGA,093003.000,2332.9420,N,08717.5698,E,1,10,0.84,104.1,M,-52.8,M,,*4A

$GPGSA,A,3,07,11,08,01,28,30,09,23,13,17,,,1.13,0.84,0.76*07

$GPRMC,093003.000,A,2332.9420,N,08717.5698,E,0.14,302.75,290416,,,A*6D

$GPZDA,093003.000,29,04,2016,,*55

$GPGGA,093004.000,2332.9420,N,08717.5699,E,1,10,0.84,104.1,M,-52.8,M,,*4C

$GPGSA,A,3,07,11,08,01,28,30,09,23,13,17,,,1.13,0.84,0.76*07

$GPRMC,093004.000,A,2332.9420,N,08717.5699,E,0.41,121.49,290416,,,A*67

$GPZDA,093004.000,29,04,2016,,*52

$GPGGA,093005.000,2332.9419,N,08717.5700,E,1,10,0.84,104.1,M,-52.8,M,,*46

$GPGSA,A,3,07,11,08,01,28,30,09,23,13,17,,,1.13,0.84,0.76*07

$GPRMC,093005.000,A,2332.9419,N,08717.5700,E,0.45,141.58,290416,,,A*6F

$GPZDA,093005.000,29,04,2016,,*53

$GPGGA,093006.000,2332.9418,N,08717.5701,E,1,10,0.84,104.1,M,-52.8,M,,*45

$GPGSA,A,3,07,11,08,01,28,30,09,23,13,17,,,1.13,0.84,0.76*07

$GPGSV,4,1,13,07,76,073,20,30,61,340,28,11,53,078,26,01,43,109,22*74

$GPGSV,4,2,13,17,38,231,19,28,36,311,24,09,26,191,22,08,21,038,20*74

$GPGSV,4,3,13,50,21,104,25,193,11,117,19,13,10,317,19,19,08,223,21*42

$GPGSV,4,4,13,23,05,168,11*40

$GPRMC,093006.000,A,2332.9418,N,08717.5701,E,0.49,187.83,290416,,,A*6C

$GPZDA,093006.000,29,04,2016,,*50

$GPGGA,093007.000,2332.9417,N,08717.5701,E,1,10,0.84,104.1,M,-52.8,M,,*4B

$GPGSA,A,3,07,11,08,01,28,30,09,23,13,17,,,1.13,0.84,0.76*07

$GPRMC,093007.000,A,2332.9417,N,08717.5701,E,0.08,266.75,290416,,,A*62

$GPZDA,093007.000,29,04,2016,,*51

$GPGGA,093008.000,2332.9417,N,08717.5700,E,1,09,0.91,104.1,M,-52.8,M,,*49

$GPGSA,A,3,07,11,08,01,28,30,09,13,17,,,,1.23,0.91,0.83*0B

$GPRMC,093008.000,A,2332.9417,N,08717.5700,E,0.31,55.39,290416,,,A*5C

$GPZDA,093008.000,29,04,2016,,*5E

$GPGGA,093009.000,2332.9417,N,08717.5701,E,1,09,0.91,104.1,M,-52.8,M,,*49

$GPGSA,A,3,07,11,08,01,28,30,09,13,17,,,,1.23,0.91,0.83*0B

$GPRMC,093009.000,A,2332.9417,N,08717.5701,E,0.59,149.10,290416,,,A*65

$GPZDA,093009.000,29,04,2016,,*5F

$GPGGA,093010.000,2332.9415,N,08717.5703,E,1,09,0.91,104.0,M,-52.8,M,,*40

$GPGSA,A,3,07,11,08,01,28,30,09,13,17,,,,1.23,0.91,0.83*0B

$GPRMC,093010.000,A,2332.9415,N,08717.5703,E,0.42,175.28,290416,,,A*63

$GPZDA,093010.000,29,04,2016,,*57

$GPGGA,093011.000,2332.9414,N,08717.5703,E,1,10,0.84,104.0,M,-52.8,M,,*4C

$GPGSA,A,3,07,11,08,01,28,30,09,23,13,17,,,1.13,0.84,0.76*07

$GPGSV,4,1,13,07,76,073,18,30,61,340,31,11,53,078,25,01,43,109,22*74

$GPGSV,4,2,13,17,38,231,21,28,36,311,25,09,26,191,19,08,21,038,20*76

$GPGSV,4,3,13,39,16,257,,193,11,117,18,13,10,317,17,19,08,224,19*48

$GPGSV,4,4,13,23,05,168,12*43

$GPRMC,093011.000,A,2332.9414,N,08717.5703,E,0.32,241.17,290416,,,A*6C

$GPZDA,093011.000,29,04,2016,,*56

$GPGGA,093012.000,2332.9414,N,08717.5705,E,1,10,0.84,104.0,M,-52.8,M,,*49

$GPGSA,A,3,07,11,08,01,28,30,09,23,13,17,,,1.13,0.84,0.76*07

$GPRMC,093012.000,A,2332.9414,N,08717.5705,E,0.47,42.14,290416,,,A*59

$GPZDA,093012.000,29,04,2016,,*55

$GPGGA,093013.000,2332.9415,N,08717.5706,E,1,10,0.84,104.0,M,-52.8,M,,*4A

$GPGSA,A,3,07,11,08,01,28,30,09,23,13,17,,,1.13,0.84,0.76*07

$GPRMC,093013.000,A,2332.9415,N,08717.5706,E,0.51,43.37,290416,,,A*5D

$GPZDA,093013.000,29,04,2016,,*54

$GPGGA,093014.000,2332.9416,N,08717.5708,E,1,10,0.84,104.0,M,-52.8,M,,*40

$GPGSA,A,3,07,11,08,01,28,30,09,23,13,17,,,1.13,0.84,0.76*07

$GPRMC,093014.000,A,2332.9416,N,08717.5708,E,0.43,101.63,290416,,,A*62

$GPZDA,093014.000,29,04,2016,,*53

$GPGGA,093015.000,2332.9416,N,08717.5709,E,1,10,0.84,104.0,M,-52.8,M,,*40

$GPGSA,A,3,07,11,08,01,28,30,09,23,13,17,,,1.13,0.84,0.76*07

$GPRMC,093015.000,A,2332.9416,N,08717.5709,E,0.33,146.61,290416,,,A*64

$GPZDA,093015.000,29,04,2016,,*52

$GPGGA,093016.000,2332.9415,N,08717.5709,E,1,09,0.91,104.0,M,-52.8,M,,*4C

$GPGSA,A,3,07,11,08,01,28,30,09,13,17,,,,1.23,0.91,0.83*0B

$GPGSV,4,1,13,07,76,073,21,30,61,340,28,11,53,078,28,01,43,109,25*7C

$GPGSV,4,2,13,17,38,231,21,28,36,311,22,09,26,191,18,08,21,038,18*7B

$GPGSV,4,3,13,39,16,257,,193,11,117,18,13,10,317,18,19,08,224,17*49

$GPGSV,4,4,13,23,05,167,*4F

$GPRMC,093016.000,A,2332.9415,N,08717.5709,E,0.19,191.85,290416,,,A*6C

$GPZDA,093016.000,29,04,2016,,*51

$GPGGA,093017.000,2332.9415,N,08717.5709,E,1,09,0.91,104.0,M,-52.8,M,,*4D

$GPGSA,A,3,07,11,08,01,28,30,09,13,17,,,,1.23,0.91,0.83*0B

$GPRMC,093017.000,A,2332.9415,N,08717.5709,E,0.35,130.38,290416,,,A*6E

$GPZDA,093017.000,29,04,2016,,*50

$GPGGA,093018.000,2332.9414,N,08717.5710,E,1,09,0.91,104.0,M,-52.8,M,,*4B

$GPGSA,A,3,07,11,08,01,28,30,09,13,17,,,,1.23,0.91,0.83*0B

$GPRMC,093018.000,A,2332.9414,N,08717.5710,E,0.27,137.75,290416,,,A*65

$GPZDA,093018.000,29,04,2016,,*5F

$GPGGA,093019.000,2332.9414,N,08717.5711,E,1,09,0.91,104.0,M,-52.8,M,,*4B

$GPGSA,A,3,07,11,08,01,28,30,09,13,17,,,,1.23,0.91,0.83*0B

$GPRMC,093019.000,A,2332.9414,N,08717.5711,E,0.13,257.49,290416,,,A*68

$GPZDA,093019.000,29,04,2016,,*5E

$GPGGA,093020.000,2332.9414,N,08717.5711,E,1,09,0.91,104.0,M,-52.8,M,,*41

$GPGSA,A,3,07,11,08,01,28,30,09,13,17,,,,1.23,0.91,0.83*0B

$GPRMC,093020.000,A,2332.9414,N,08717.5711,E,1.09,16.35,290416,,,A*54

$GPZDA,093020.000,29,04,2016,,*54

$GPGGA,093021.000,2332.9418,N,08717.5712,E,1,09,0.91,104.2,M,-52.8,M,,*4D

$GPGSA,A,3,07,11,08,01,28,30,09,13,17,,,,1.23,0.91,0.83*0B

$GPGSV,4,1,13,07,76,073,23,30,61,340,29,11,53,078,31,01,43,109,24*76

$GPGSV,4,2,13,17,38,231,19,28,36,311,16,09,26,191,13,08,21,038,19*7D

$GPGSV,4,3,13,37,13,259,,193,11,117,17,13,10,317,22,19,08,224,12*4F

$GPGSV,4,4,13,23,05,167,*4F

$GPRMC,093021.000,A,2332.9418,N,08717.5712,E,0.53,344.82,290416,,,A*6C

$GPZDA,093021.000,29,04,2016,,*55

$GPGGA,093022.000,2332.9425,N,08717.5715,E,1,09,0.91,104.2,M,-52.8,M,,*47

$GPGSA,A,3,07,11,08,01,28,30,09,13,17,,,,1.23,0.91,0.83*0B

$GPRMC,093022.000,A,2332.9425,N,08717.5715,E,0.43,242.66,290416,,,A*6A

$GPZDA,093022.000,29,04,2016,,*56

$GPGGA,093023.000,2332.9425,N,08717.5715,E,1,09,0.91,104.3,M,-52.8,M,,*47

$GPGSA,A,3,07,11,08,01,28,30,09,13,17,,,,1.23,0.91,0.83*0B

$GPRMC,093023.000,A,2332.9425,N,08717.5715,E,0.76,218.63,290416,,,A*67

$GPZDA,093023.000,29,04,2016,,*57

$GPGGA,093024.000,2332.9424,N,08717.5716,E,1,09,0.91,104.3,M,-52.8,M,,*42

$GPGSA,A,3,07,11,08,01,28,30,09,13,17,,,,1.23,0.91,0.83*0B

$GPRMC,093024.000,A,2332.9424,N,08717.5716,E,0.68,182.90,290416,,,A*61

$GPZDA,093024.000,29,04,2016,,*50

$GPGGA,093025.000,2332.9425,N,08717.5717,E,1,09,0.91,104.4,M,-52.8,M,,*44

$GPGSA,A,3,07,11,08,01,28,30,09,13,17,,,,1.23,0.91,0.83*0B

$GPRMC,093025.000,A,2332.9425,N,08717.5717,E,0.60,204.87,290416,,,A*63

$GPZDA,093025.000,29,04,2016,,*51

$GPGGA,093026.000,2332.9424,N,08717.5716,E,1,09,0.91,104.4,M,-52.8,M,,*47

$GPGSA,A,3,07,11,08,01,28,30,09,13,17,,,,1.23,0.91,0.83*0B

$GPGSV,4,1,13,07,76,073,19,30,61,340,32,11,53,078,32,01,43,109,22*70

$GPGSV,4,2,13,17,38,231,11,28,36,311,16,09,26,191,15,08,21,038,20*79

$GPGSV,4,3,13,37,13,259,,193,11,117,18,13,10,317,24,19,08,224,11*45

$GPGSV,4,4,13,23,05,167,*4F

$GPRMC,093026.000,A,2332.9424,N,08717.5716,E,0.79,226.53,290416,,,A*61

$GPZDA,093026.000,29,04,2016,,*52

$GPGGA,093027.000,2332.9421,N,08717.5716,E,1,09,0.91,104.5,M,-52.8,M,,*42

$GPGSA,A,3,07,11,08,01,28,30,09,13,17,,,,1.23,0.91,0.83*0B

$GPRMC,093027.000,A,2332.9421,N,08717.5716,E,0.55,187.85,290416,,,A*68

$GPZDA,093027.000,29,04,2016,,*53

$GPGGA,093028.000,2332.9421,N,08717.5718,E,1,09,0.91,104.5,M,-52.8,M,,*43

$GPGSA,A,3,07,11,08,01,28,30,09,13,17,,,,1.23,0.91,0.83*0B

$GPRMC,093028.000,A,2332.9421,N,08717.5718,E,0.83,163.45,290416,,,A*64

$GPZDA,093028.000,29,04,2016,,*5C

$GPGGA,093029.000,2332.9420,N,08717.5720,E,1,09,0.91,104.5,M,-52.8,M,,*48

$GPGSA,A,3,07,11,08,01,28,30,09,13,17,,,,1.23,0.91,0.83*0B

$GPRMC,093029.000,A,2332.9420,N,08717.5720,E,0.95,177.62,290416,,,A*68

$GPZDA,093029.000,29,04,2016,,*5D

$GPGGA,093030.000,2332.9417,N,08717.5721,E,1,09,0.91,104.5,M,-52.8,M,,*45

$GPGSA,A,3,07,11,08,01,28,30,09,13,17,,,,1.23,0.91,0.83*0B

$GPRMC,093030.000,A,2332.9417,N,08717.5721,E,0.60,204.64,290416,,,A*6E

$GPZDA,093030.000,29,04,2016,,*55

$GPGGA,093031.000,2332.9416,N,08717.5723,E,1,10,0.84,104.5,M,-52.8,M,,*4B

$GPGSA,A,3,07,11,08,01,28,30,09,13,17,23,,,1.13,0.84,0.76*07

$GPGSV,4,1,13,07,76,073,18,30,61,340,33,11,53,078,33,01,43,108,21*73

$GPGSV,4,2,13,17,38,231,17,28,36,311,18,09,26,191,14,08,21,038,22*72

$GPGSV,4,3,13,193,11,117,18,13,10,317,24,19,08,224,16,23,05,167,13*4C

$GPGSV,4,4,13,34,,,*7C

$GPRMC,093031.000,A,2332.9416,N,08717.5723,E,0.77,185.90,290416,,,A*6B

$GPZDA,093031.000,29,04,2016,,*54

$GPGGA,093032.000,2332.9412,N,08717.5723,E,1,10,0.84,104.5,M,-52.8,M,,*4C

$GPGSA,A,3,07,11,08,01,28,30,09,13,17,23,,,1.13,0.84,0.76*07

$GPRMC,093032.000,A,2332.9412,N,08717.5723,E,0.48,188.52,290416,,,A*63

$GPZDA,093032.000,29,04,2016,,*57

$GPGGA,093033.000,2332.9412,N,08717.5726,E,1,10,0.83,104.5,M,-52.8,M,,*4F

$GPGSA,A,3,07,11,08,01,28,30,09,13,17,23,,,1.13,0.83,0.76*00

$GPRMC,093033.000,A,2332.9412,N,08717.5726,E,0.19,84.21,290416,,,A*5A

$GPZDA,093033.000,29,04,2016,,*56

$GPGGA,093034.000,2332.9415,N,08717.5729,E,1,10,0.83,104.6,M,-52.8,M,,*43

$GPGSA,A,3,07,11,08,01,28,30,09,13,17,23,,,1.13,0.83,0.76*00

$GPRMC,093034.000,A,2332.9415,N,08717.5729,E,0.53,231.31,290416,,,A*66

$GPZDA,093034.000,29,04,2016,,*51

$GPGGA,093035.000,2332.9418,N,08717.5733,E,1,10,0.84,104.6,M,-52.8,M,,*43

$GPGSA,A,3,07,11,08,01,28,30,09,13,17,23,,,1.13,0.84,0.76*07

$GPRMC,093035.000,A,2332.9418,N,08717.5733,E,0.25,208.28,290416,,,A*62

$GPZDA,093035.000,29,04,2016,,*50

$GPGGA,093036.000,2332.9418,N,08717.5732,E,1,10,0.83,104.6,M,-52.8,M,,*46

$GPGSA,A,3,07,11,08,01,28,30,09,13,17,23,,,1.13,0.83,0.76*00

$GPGSV,4,1,13,07,76,075,26,30,61,340,34,11,53,078,33,01,43,108,23*7D

$GPGSV,4,2,13,17,38,231,18,28,36,311,16,09,25,190,15,08,21,038,24*76

$GPGSV,4,3,13,193,11,117,18,13,10,317,25,19,08,224,15,23,05,167,12*4F

$GPGSV,4,4,13,35,,,*7D

$GPRMC,093036.000,A,2332.9418,N,08717.5732,E,0.51,255.05,290416,,,A*64

$GPZDA,093036.000,29,04,2016,,*53

$GPGGA,093037.000,2332.9417,N,08717.5731,E,1,09,0.91,104.6,M,-52.8,M,,*40

$GPGSA,A,3,07,11,08,01,28,30,09,13,17,,,,1.23,0.91,0.83*0B

$GPRMC,093037.000,A,2332.9417,N,08717.5731,E,0.08,295.08,290416,,,A*64

$GPZDA,093037.000,29,04,2016,,*52

$GPGGA,093038.000,2332.9417,N,08717.5731,E,1,09,0.91,104.6,M,-52.8,M,,*4F

$GPGSA,A,3,07,11,08,01,28,30,09,13,17,,,,1.23,0.91,0.83*0B

$GPRMC,093038.000,A,2332.9417,N,08717.5731,E,0.49,28.70,290416,,,A*55

$GPZDA,093038.000,29,04,2016,,*5D

$GPGGA,093039.000,2332.9419,N,08717.5732,E,1,09,0.91,104.6,M,-52.8,M,,*43

